NODE_KEY,CITY,POSTAL_CODE,STREET,BUILDING,COUNTRY,ADDRESS_TYPE,VAL_START_DATE,VAL_END_DATE,LATITUDE,LONGITUDE
ADDR001,New York,10001,5th Avenue,Building 1,USA,Office,2023-01-01,2023-12-31,40.7128,-74.0060
ADDR002,Los Angeles,90001,Sunset Blvd,Building 2,USA,Warehouse,2023-02-01,2023-12-31,34.0522,-118.2437
ADDR003,Chicago,60601,North Ave,Building 3,USA,Office,2023-03-01,2023-12-31,41.8781,-87.6298
ADDR004,Houston,77001,Main St,Building 4,USA,Store,2023-04-01,2023-12-31,29.7604,-95.3698
ADDR005,Miami,33101,Ocean Dr,Building 5,USA,Office,2023-05-01,2023-12-31,25.7617,-80.1918
